[{"id": 1383,"name": "Stedelijk Museum","lat": 52.35812716363636,"lng": 4.879733722727273,"cnt": "546"}, {"id": 5930,"name": "Centraal Station","lat": 52.379,"lng": 4.9006,"cnt": "398"}, {"id": 663,"name": "Pakhuis De Zwijger","lat": 52.376839569999994,"lng": 4.92205686,"cnt": "393"}, {"id": 5362,"name": "Anne Frank Huis","lat": 52.37514856666667,"lng": 4.884066533333333,"cnt": "301"}, {"id": 5092,"name": "Ferdinand Bolstraat","lat": 52.3553095,"lng": 4.8903782,"cnt": "240"}, {"id": 3380,"name": "Heineken Music Hall","lat": 52.3123852,"lng": 4.9442273,"cnt": "221"}, {"id": 3361,"name": "Coffee company","lat": 52.3716436,"lng": 4.8967162,"cnt": "183"}, {"id": 794,"name": "Opleidinginstituut Zorg & Welzijn","lat": 52.334437181249996,"lng": 4.86499178125,"cnt": "162"}, {"id": 1560,"name": "Heineken Experience","lat": 52.357775925000006,"lng": 4.891610325,"cnt": "161"}, {"id": 558,"name": "VUmc Cancer Center Amsterdam","lat": 52.3367323,"lng": 4.8591619,"cnt": "161"}, {"id": 1381,"name": "Van Gogh Museum","lat": 52.358074241176446,"lng": 4.88120140882353,"cnt": "153"}, {"id": 3581,"name": "Pathé Tuschinski","lat": 52.3664914,"lng": 4.8946613,"cnt": "153"}, {"id": 2854,"name": "Volle maan","lat": 52.3543287,"lng": 4.8936608,"cnt": "151"}, {"id": 5929,"name": "Schiphol Airport","lat": 52.3077,"lng": 4.7596,"cnt": "148"}, {"id": 5875,"name": "Sugar Factory","lat": 52.3648748,"lng": 4.8818664,"cnt": "140"}, {"id": 3315,"name": "Pathé Arena","lat": 52.3122868,"lng": 4.9456274,"cnt": "139"}, {"id": 1293,"name": "Nieuw-Sloten","lat": 52.3465237,"lng": 4.8115265,"cnt": "133"}, {"id": 2875,"name": "Crowne Plaza Amsterdam City Centre","lat": 52.3771594,"lng": 4.895458,"cnt": "129"}, {"id": 3580,"name": "Pathé de Munt","lat": 52.366471,"lng": 4.8935348,"cnt": "123"}, {"id": 917,"name": "Toren Overhoeks","lat": 52.3838763,"lng": 4.902109685714286,"cnt": "117"}, {"id": 3477,"name": "Science Park","lat": 52.3527978,"lng": 4.9485279,"cnt": "116"}, {"id": 3566,"name": "Rijksmuseum","lat": 52.35971055625,"lng": 4.884931406250001,"cnt": "109"}, {"id": 1007,"name": "Stadsdeel Amsterdam-Noord","lat": 52.4009279,"lng": 4.9329769,"cnt": "108"}, {"id": 686,"name": "Beurs van Berlage","lat": 52.37511913076923,"lng": 4.896377161538461,"cnt": "108"}, {"id": 819,"name": "Madame Tussauds","lat": 52.3725311,"lng": 4.8925789,"cnt": "107"}, {"id": 2416,"name": "Point of View","lat": 52.28087426500001,"lng": 4.75388824,"cnt": "106"}, {"id": 1786,"name": "Openbare Bibliotheek Amsterdam","lat": 52.3757924,"lng": 4.9083905,"cnt": "106"}, {"id": 3478,"name": "Felix Meritis","lat": 52.36996215,"lng": 4.884015724999999,"cnt": "104"}, {"id": 1513,"name": "Amsterdam Tattoo Museum","lat": 52.3646446,"lng": 4.9162717,"cnt": "104"}, {"id": 4800,"name": "Bagels and Beans","lat": 52.3573381,"lng": 4.9099181,"cnt": "102"}, {"id": 5269,"name": "Vrije Universiteit","lat": 52.33330287500001,"lng": 4.864899866666668,"cnt": "101"}, {"id": 580,"name": "Holland Casino","lat": 52.362368,"lng": 4.8822046,"cnt": "98"}, {"id": 2347,"name": "NH City Centre Amsterdam","lat": 52.3698407,"lng": 4.8886879,"cnt": "96"}, {"id": 2121,"name": "Ouderkerk a/d Amstel","lat": 52.2995755,"lng": 4.911351,"cnt": "93"}, {"id": 44,"name": "Winkelcentrum Diemen Noord","lat": 52.349764,"lng": 4.977725,"cnt": "92"}, {"id": 5628,"name": "Hogeschool InHolland","lat": 52.3267044,"lng": 4.9606486,"cnt": "89"}, {"id": 1517,"name": "Dierenasiel Amsterdam Noord Oostzaan","lat": 52.4256828,"lng": 4.8872354,"cnt": "89"}, {"id": 5209,"name": "De Rode Hoed","lat": 52.37735568333334,"lng": 4.88702805,"cnt": "84"}, {"id": 5922,"name": "Meyer & Meyer","lat": 52.3034383,"lng": 4.8595643,"cnt": "84"}, {"id": 2892,"name": "Station Zaandam","lat": 52.438098049999994,"lng": 4.81445635,"cnt": "83"}, {"id": 5606,"name": "Grand Cafe Plaza","lat": 52.3100431,"lng": 4.7612723,"cnt": "81"}, {"id": 641,"name": "Nederlandse Film en Televisie Academie","lat": 52.368383200000004,"lng": 4.905092574999999,"cnt": "78"}, {"id": 5002,"name": "Grand Café","lat": 52.3635675,"lng": 4.8834938,"cnt": "77"}, {"id": 702,"name": "Oude Kerk","lat": 52.37429663030303,"lng": 4.898074963636364,"cnt": "75"}, {"id": 1805,"name": "Boom Chicago","lat": 52.3646621,"lng": 4.8825624,"cnt": "74"}, {"id": 1967,"name": "Regionale Politie Amsterdam Amstelland","lat": 52.3495136,"lng": 4.920314,"cnt": "73"}, {"id": 1327,"name": "Park Plaza Amsterdam Airport","lat": 52.3483375,"lng": 4.7657357,"cnt": "73"}, {"id": 2815,"name": "Amsterdam Amstel","lat": 52.34668736428571,"lng": 4.918161728571429,"cnt": "72"}, {"id": 3495,"name": "Jaap Eden - IJsbaan","lat": 52.34797172857142,"lng": 4.944418647619046,"cnt": "71"}, {"id": 2549,"name": "Stichting Beheer NDSM werf Oost","lat": 52.3988954,"lng": 4.8923254,"cnt": "71"}, {"id": 5690,"name": "Langendijk","lat": 52.3668636,"lng": 4.9258812,"cnt": "69"}, {"id": 1371,"name": "Nieuwezijds voorburgwal","lat": 52.3713541,"lng": 4.8906586,"cnt": "69"}, {"id": 871,"name": "Gereformeerde gemeente Amsterdam Noord","lat": 52.418339,"lng": 4.8812925,"cnt": "67"}, {"id": 4699,"name": "Oudezijds Voorburgwal; Damstraat","lat": 52.3717081,"lng": 4.8953941,"cnt": "67"}, {"id": 131,"name": "Jaap Eden-hal","lat": 52.34926853333334,"lng": 4.944489533333334,"cnt": "67"}, {"id": 1444,"name": "Stadsdeel Zuidoost","lat": 52.316314,"lng": 4.9565944,"cnt": "66"}, {"id": 1612,"name": "Passenger Terminal Amsterdam","lat": 52.3777798,"lng": 4.91586345,"cnt": "66"}, {"id": 717,"name": "Nemo Science Centre","lat": 52.37439756923076,"lng": 4.912307973076924,"cnt": "65"}, {"id": 3392,"name": "Indische buurt","lat": 52.3628862,"lng": 4.9401646,"cnt": "63"}, {"id": 5066,"name": "Martin Luther King school","lat": 52.312490869230764,"lng": 4.878205023076923,"cnt": "63"}, {"id": 5640,"name": "Apotheek Diemen Noord","lat": 52.351808,"lng": 4.9709482,"cnt": "63"}, {"id": 1203,"name": "Groene Hart","lat": 52.45314499999999,"lng": 5.03341,"cnt": "62"}, {"id": 5443,"name": "Amsterdam Sloterdijk","lat": 52.388998047368425,"lng": 4.838325652631579,"cnt": "62"}, {"id": 2952,"name": "Pazzi Italian Slow Food","lat": 52.3693392,"lng": 4.8806778,"cnt": "60"}, {"id": 511,"name": "Prins Hendrikkade 193a","lat": 52.3616242,"lng": 4.9080003,"cnt": "59"}, {"id": 5629,"name": "Diemen Noord","lat": 52.3469531,"lng": 4.9858055,"cnt": "59"}, {"id": 2978,"name": "Brandweer-kazerne Anton","lat": 52.327596,"lng": 4.9674485,"cnt": "58"}, {"id": 5223,"name": "Brandweer-kazerne Willem","lat": 52.34871768000001,"lng": 4.914900960000001,"cnt": "58"}, {"id": 3111,"name": "Fietspunt Station Zuid WTC","lat": 52.339770924999996,"lng": 4.87321545,"cnt": "58"}, {"id": 588,"name": "Hard Rock Cafe","lat": 52.3620279,"lng": 4.883036,"cnt": "56"}, {"id": 3090,"name": "Ds. Martin Luther Kingweg","lat": 52.44290891666666,"lng": 4.835292266666667,"cnt": "55"}, {"id": 2371,"name": "De Nederlandsche Bank","lat": 52.35892693333333,"lng": 4.900260800000001,"cnt": "54"}, {"id": 657,"name": "Jungle by Night","lat": 52.36589534615385,"lng": 4.9186820461538465,"cnt": "54"}, {"id": 5668,"name": "Holland Financial Centre","lat": 52.3364471,"lng": 4.8744535,"cnt": "53"}, {"id": 5647,"name": "Kazerne Koninklijke Marechaussee","lat": 52.322897766666664,"lng": 4.757609333333334,"cnt": "53"}, {"id": 2673,"name": "Bibliotheek Roelof Hartplein","lat": 52.3525509,"lng": 4.882478,"cnt": "52"}, {"id": 2424,"name": "WINGS food & drinks","lat": 52.309482900000006,"lng": 4.809910149999999,"cnt": "52"}, {"id": 1621,"name": "KLPD Unit Luchtvaartpolitie","lat": 52.3138778,"lng": 4.8077211,"cnt": "52"}, {"id": 5085,"name": "NOVA college","lat": 52.29245015,"lng": 4.8491268000000005,"cnt": "51"}, {"id": 66,"name": "Vondel Park Plaza","lat": 52.3542481,"lng": 4.8663024,"cnt": "51"}, {"id": 2526,"name": "Piet Hein-tunnel","lat": 52.37240295,"lng": 4.9605385,"cnt": "51"}, {"id": 3547,"name": "Gall&Gall","lat": 52.334168,"lng": 5.021549,"cnt": "51"}, {"id": 2679,"name": "Bibl. Olympisch Kwartier","lat": 52.3453125,"lng": 4.85578,"cnt": "51"}, {"id": 5467,"name": "Olympisch Kwartier","lat": 52.346111663636364,"lng": 4.854482090909091,"cnt": "51"}, {"id": 1049,"name": "Van Eesterenmuseum","lat": 52.3801822,"lng": 4.8272038,"cnt": "51"}, {"id": 832,"name": "Amsterdam Museum","lat": 52.3704312,"lng": 4.8904288,"cnt": "50"}, {"id": 5574,"name": "Marco Polo","lat": 52.365460999999996,"lng": 4.8033959500000005,"cnt": "50"}, {"id": 105,"name": "Java-eiland","lat": 52.3785563,"lng": 4.9285739,"cnt": "49"}, {"id": 5294,"name": "Nationaal Historisch Museum","lat": 52.3703358,"lng": 4.8999519,"cnt": "49"}, {"id": 1173,"name": "Broek In Waterland","lat": 52.43405992941179,"lng": 4.997127359803922,"cnt": "49"}, {"id": 3446,"name": "Kop van het Java-eiland","lat": 52.37959460833334,"lng": 4.92086515,"cnt": "49"}, {"id": 1355,"name": "Bibliotheek Waterland","lat": 52.4505186,"lng": 5.0379833,"cnt": "49"}, {"id": 170,"name": "Allard Pierson Bibliotheek","lat": 52.3635571,"lng": 4.9116721,"cnt": "48"}, {"id": 888,"name": "Mary-Ann Lingerie","lat": 52.3818552,"lng": 4.8884607,"cnt": "48"}, {"id": 1823,"name": "Piet Hein garage","lat": 52.37768931666667,"lng": 4.914775316666666,"cnt": "48"}, {"id": 1129,"name": "Bibliotheek Mercatorplein","lat": 52.3693998,"lng": 4.8502171,"cnt": "47"}, {"id": 2897,"name": "Tulip Inn Amsterdam Centre","lat": 52.3765293,"lng": 4.8935818,"cnt": "47"}, {"id": 1880,"name": "De Key Diemen-Zuid","lat": 52.32584236,"lng": 4.95937336,"cnt": "47"}, {"id": 3309,"name": "Jack Jones","lat": 52.4397784,"lng": 4.8221115,"cnt": "46"}, {"id": 5285,"name": "Politiebureau Amstelveen (-Noord)","lat": 52.3024857,"lng": 4.8634262,"cnt": "46"}]